{
  "neighborhoods": [
    {
      "name": "East Rock",
      "kicker": "Coffee, corner stores, and late-night bites",
      "businesses": [
        {
          "name": "Sample Café",
          "category": "Coffee",
          "status": "open",
          "today": "7a–3p",
          "address": "123 Orange St",
          "phone": "(203) 555-0101",
          "description": "Neighborhood coffee counter with espresso and simple pastries.",
          "week": [
            { "day": "Mon", "hours": "7a–3p" },
            { "day": "Tue", "hours": "7a–3p" },
            { "day": "Wed", "hours": "7a–3p" },
            { "day": "Thu", "hours": "7a–3p" },
            { "day": "Fri", "hours": "7a–4p" },
            { "day": "Sat", "hours": "8a–4p" },
            { "day": "Sun", "hours": "8a–2p" }
          ]
        },
        {
          "name": "Sample Market",
          "category": "Groceries",
          "status": "open",
          "today": "8a–9p",
          "address": "45 State St",
          "phone": "(203) 555-0133",
          "description": "Small neighborhood market for quick staples and snacks.",
          "week": [
            { "day": "Mon", "hours": "8a–9p" },
            { "day": "Tue", "hours": "8a–9p" },
            { "day": "Wed", "hours": "8a–9p" },
            { "day": "Thu", "hours": "8a–9p" },
            { "day": "Fri", "hours": "8a–10p" },
            { "day": "Sat", "hours": "8a–10p" },
            { "day": "Sun", "hours": "9a–8p" }
          ]
        }
      ]
    },
    {
      "name": "Wooster Square",
      "kicker": "Slices, parks, and neighborhood staples",
      "businesses": [
        {
          "name": "Sample Pizzeria",
          "category": "Food",
          "status": "open",
          "today": "11a–10p",
          "address": "9 Wooster Pl",
          "phone": "(203) 555-0199",
          "description": "Local slice shop with pies, salads, and a steady lunch rush.",
          "week": [
            { "day": "Mon", "hours": "11a–10p" },
            { "day": "Tue", "hours": "11a–10p" },
            { "day": "Wed", "hours": "11a–10p" },
            { "day": "Thu", "hours": "11a–10p" },
            { "day": "Fri", "hours": "11a–11p" },
            { "day": "Sat", "hours": "11a–11p" },
            { "day": "Sun", "hours": "12p–9p" }
          ]
        }
      ]
    },
    {
      "name": "Ninth Square",
      "kicker": "Downtown blocks: bars, bookstores, dinner",
      "businesses": [
        {
          "name": "Rudy's Bar",
          "category": "Bar",
          "status": "open",
          "today": "11:30a–1a",
          "address": "1227 Chapel St, New Haven, CT 06511",
          "phone": "(203) 865-1242",
          "description": "New digs for a longtime gathering spot: beers, Belgian fries, and pub fare—minus the old graffiti.",
          "week": [
            { "day": "Mon", "hours": "11:30a–1a" },
            { "day": "Tue", "hours": "11:30a–1a" },
            { "day": "Wed", "hours": "11:30a–1a" },
            { "day": "Thu", "hours": "11:30a–1a" },
            { "day": "Fri", "hours": "11:30a–2a" },
            { "day": "Sat", "hours": "11:30a–2a" },
            { "day": "Sun", "hours": "11:30a–1a" }
          ],
          "happenings": [
            { "type": "trivia", "day": "Tue", "time": "7:30–9:30p" },
            { "type": "karaoke", "day": "Sat", "time": "10p–1a" }
          ]
        },
        {
          "name": "The Owl Shop",
          "category": "Cigar bar",
          "status": "open",
          "today": "11a–1a",
          "address": "268 College St, New Haven, CT 06510",
          "phone": "(203) 624-3250",
          "description": "Old-school tobacconist and lounge with cocktails and small bites.",
          "week": [
            { "day": "Mon", "hours": "4p–1a" },
            { "day": "Tue", "hours": "11a–1a" },
            { "day": "Wed", "hours": "11a–1a" },
            { "day": "Thu", "hours": "11a–1a" },
            { "day": "Fri", "hours": "11a–2a" },
            { "day": "Sat", "hours": "11a–2a" },
            { "day": "Sun", "hours": "12p–1a" }
          ]
        },
        {
          "name": "Koffee?",
          "category": "Coffee",
          "status": "open",
          "today": "7a–8p",
          "address": "104 Audubon St, New Haven, CT 06511",
          "phone": "(203) 465-6244",
          "description": "Fair-trade brews, housemade pastries, and sandwiches in a brick-walled space.",
          "week": [
            { "day": "Mon", "hours": "7a–8p" },
            { "day": "Tue", "hours": "7a–8p" },
            { "day": "Wed", "hours": "7a–8p" },
            { "day": "Thu", "hours": "7a–8p" },
            { "day": "Fri", "hours": "7a–8p" },
            { "day": "Sat", "hours": "7a–8p" },
            { "day": "Sun", "hours": "7a–8p" }
          ]
        },
        {
          "name": "Three Sheets",
          "category": "Bar",
          "status": "open",
          "today": "Open · closes 12a",
          "address": "372 Elm St, New Haven, CT 06511",
          "phone": "(475) 202-6909",
          "description": "Lively local bar for cocktails and a bite—often with music on the calendar.",
          "week": [
            { "day": "Mon", "hours": "—" },
            { "day": "Tue", "hours": "—" },
            { "day": "Wed", "hours": "—" },
            { "day": "Thu", "hours": "—" },
            { "day": "Fri", "hours": "—" },
            { "day": "Sat", "hours": "—" },
            { "day": "Sun", "hours": "—" }
          ]
        },
        {
          "name": "Cafe Nine",
          "category": "Live music",
          "status": "open",
          "today": "5p–1a",
          "address": "250 State St, New Haven, CT 06510",
          "phone": "(203) 800-4623",
          "description": "High-energy room with a full bar plus regular live music and comedy.",
          "week": [
            { "day": "Mon", "hours": "5p–1a" },
            { "day": "Tue", "hours": "5p–1a" },
            { "day": "Wed", "hours": "5p–1a" },
            { "day": "Thu", "hours": "5p–1a" },
            { "day": "Fri", "hours": "5p–2a" },
            { "day": "Sat", "hours": "5p–2a" },
            { "day": "Sun", "hours": "4p–1a" }
          ]
        },
        {
          "name": "Ordinary",
          "category": "Cocktail bar",
          "status": "open",
          "today": "5p–12a",
          "address": "990 Chapel St, New Haven, CT 06510",
          "phone": "(203) 907-0238",
          "description": "Dark-wood cocktail haunt serving charcuterie and cheese boards.",
          "week": [
            { "day": "Mon", "hours": "Closed" },
            { "day": "Tue", "hours": "5p–12a" },
            { "day": "Wed", "hours": "5p–12a" },
            { "day": "Thu", "hours": "5p–12a" },
            { "day": "Fri", "hours": "5p–1a" },
            { "day": "Sat", "hours": "5p–1a" },
            { "day": "Sun", "hours": "Closed" }
          ]
        },
        {
          "name": "Sample Bookshop",
          "category": "Retail",
          "status": "closed",
          "today": "10a–6p",
          "address": "100 Crown St",
          "phone": "(203) 555-0120",
          "description": "Independent bookshop for browsing, gifts, and weekend pickups.",
          "week": [
            { "day": "Mon", "hours": "10a–6p" },
            { "day": "Tue", "hours": "10a–6p" },
            { "day": "Wed", "hours": "10a–6p" },
            { "day": "Thu", "hours": "10a–8p" },
            { "day": "Fri", "hours": "10a–8p" },
            { "day": "Sat", "hours": "10a–6p" },
            { "day": "Sun", "hours": "12p–5p" }
          ]
        },
        {
          "name": "Sample Bar",
          "category": "Bar",
          "status": "open",
          "today": "4p–1a",
          "address": "77 Temple St",
          "phone": "(203) 555-0117",
          "description": "Late-night neighborhood bar with a small rotating menu and cocktails.",
          "week": [
            { "day": "Mon", "hours": "4p–12a" },
            { "day": "Tue", "hours": "4p–12a" },
            { "day": "Wed", "hours": "4p–12a" },
            { "day": "Thu", "hours": "4p–1a" },
            { "day": "Fri", "hours": "4p–1a" },
            { "day": "Sat", "hours": "2p–1a" },
            { "day": "Sun", "hours": "2p–10p" }
          ]
        }
      ]
    },
    {
      "name": "Westville",
      "kicker": "Independent shops and weekend errands",
      "businesses": [
        {
          "name": "Sample Florist",
          "category": "Services",
          "status": "open",
          "today": "9a–5p",
          "address": "12 Whalley Ave",
          "phone": "(203) 555-0166",
          "description": "Florals and simple gifts—good for last-minute errands.",
          "week": [
            { "day": "Mon", "hours": "9a–5p" },
            { "day": "Tue", "hours": "9a–5p" },
            { "day": "Wed", "hours": "9a–5p" },
            { "day": "Thu", "hours": "9a–5p" },
            { "day": "Fri", "hours": "9a–5p" },
            { "day": "Sat", "hours": "10a–4p" },
            { "day": "Sun", "hours": "Closed" }
          ]
        }
      ]
    }
  ]
}
